City_ID,City,Lat,Lng,Max Temp,Humidity,Cloudiness,Wind Speed,Country,Date
0,waitangi,-43.9535,-176.5597,7.68,53,18,4.48,NZ,1715070449
1,port-aux-francais,-49.35,70.2167,6.27,82,71,14.2,TF,1715070450
2,adamstown,-25.066,-130.1015,21.76,78,73,7.83,PN,1715070450
3,albany,42.6526,-73.7562,12.52,74,0,0.45,US,1715070450
4,stanley,54.868,-1.6985,10.77,92,75,2.57,GB,1715070450
5,longyearbyen,78.2186,15.6401,-1.09,74,75,0.0,SJ,1715070450
6,hilo,19.7297,-155.09,21.25,95,100,3.09,US,1715070325
7,la rinconada,37.4873,-5.9826,20.8,52,0,3.09,ES,1715070451
8,port blair,11.6667,92.75,34.02,52,40,3.09,IN,1715070451
9,praia da vitoria,38.7333,-27.0667,17.09,94,40,5.18,PT,1715070451
10,grytviken,-54.2811,-36.5092,-0.39,87,86,2.48,GS,1715070451
11,haiku-pauwela,20.9219,-156.3051,23.36,77,40,6.69,US,1715070452
12,blackmans bay,-43.0167,147.3167,13.07,81,100,0.93,AU,1715070452
13,vadso,70.0744,29.7487,-0.51,93,40,6.69,NO,1715070453
14,iqaluit,63.7506,-68.5145,-9.15,78,0,4.63,CA,1715070453
15,puerto ayora,-0.7393,-90.3518,23.08,97,8,2.45,EC,1715070453
16,afaahiti,-17.75,-149.2833,25.93,85,58,9.7,PF,1715070454
17,ola,59.5833,151.2833,3.41,95,96,2.66,RU,1715070454
18,beipiao,41.7919,120.7792,24.09,15,1,6.31,CN,1715070454
19,ushuaia,-54.8,-68.3,0.81,86,40,2.06,AR,1715070454
20,constitucion,-35.3333,-72.4167,12.78,89,100,10.75,CL,1715070454
21,torghay,49.6339,63.4981,19.24,34,0,4.88,KZ,1715070455
22,talnakh,69.4865,88.3972,-5.44,88,100,2.49,RU,1715070455
23,whitehorse,60.7161,-135.0538,1.43,77,40,5.66,CA,1715070455
24,puerto natales,-51.7236,-72.4875,-3.01,85,100,0.97,CL,1715070456
25,college,64.8569,-147.8028,0.99,90,75,3.09,US,1715070407
26,kutum,14.2,24.6667,32.49,11,91,6.85,SD,1715070456
27,sao francisco de assis,-29.5503,-55.1311,23.83,57,100,6.86,BR,1715070456
28,mabaruma,8.2,-59.7833,23.92,94,100,0.4,GY,1715070457
29,naberera,-4.2,36.9333,18.65,89,100,3.85,TZ,1715070457
30,hammerfest,70.6634,23.6821,0.25,69,20,2.06,NO,1715070457
31,pinhao,-25.6956,-51.6597,14.69,90,0,1.48,BR,1715070458
32,invercargill,-46.4,168.35,11.12,89,45,2.24,NZ,1715070458
33,borisoglebskiy,57.2586,39.1508,5.31,44,100,4.92,RU,1715070458
34,manapparai,10.6,78.4167,40.48,33,5,2.55,IN,1715070459
35,west island,-12.1568,96.8225,28.99,74,75,8.75,CC,1715070459
36,avarua,-21.2078,-159.775,27.03,89,75,2.57,CK,1715070459
37,kavieng,-2.5744,150.7967,29.12,74,100,2.0,PG,1715070459
38,edinburgh of the seven seas,-37.0676,-12.3116,14.67,72,82,11.89,SH,1715070459
39,tiksi,71.6872,128.8694,-0.21,98,100,9.28,RU,1715070460
40,geraldton,-28.7667,114.6,23.23,49,0,9.26,AU,1715070460
41,oum hadjer,13.2954,19.6966,37.9,9,17,7.45,TD,1715070460
42,kruisfontein,-34.0033,24.7314,23.82,43,18,2.86,ZA,1715070460
43,shiqian,27.5225,108.2281,20.54,88,100,0.22,CN,1715070460
44,ilulissat,69.2167,-51.1,-6.99,63,100,6.69,GL,1715070461
45,yellowknife,62.456,-114.3525,8.56,75,40,5.66,CA,1715070353
46,badger,64.8,-147.5333,0.95,92,40,3.09,US,1715070411
47,port elizabeth,-33.918,25.5701,25.05,68,0,3.6,ZA,1715070461
48,bilibino,68.0546,166.4372,-2.49,91,64,0.96,RU,1715070461
49,nalut,31.8685,10.9812,26.9,20,85,11.39,LY,1715070462
50,val-des-monts,45.6501,-75.666,8.78,76,0,1.81,CA,1715070462
51,amga,60.8953,131.9608,13.94,49,100,4.71,RU,1715070462
52,arraial do cabo,-22.9661,-42.0278,23.59,88,0,9.21,BR,1715070462
53,shimoda,34.6667,138.95,21.17,96,100,10.48,JP,1715070463
54,port mathurin,-19.6833,63.4167,25.58,72,94,12.78,MU,1715070463
55,solnechnyy,50.7214,136.6319,9.46,33,1,4.01,RU,1715070463
56,sitka,57.0531,-135.33,5.94,81,75,3.6,US,1715070464
57,yaren,-0.5472,166.916,29.15,72,55,4.97,NR,1715070464
58,hawaiian paradise park,19.5933,-154.9731,21.13,96,100,3.09,US,1715070464
59,punta arenas,-53.15,-70.9167,1.06,93,40,2.57,CL,1715070464
60,carnarvon,-24.8667,113.6333,24.02,43,0,8.53,AU,1715070464
61,margaret river,-33.95,115.0667,21.75,49,92,4.57,AU,1715070182
62,dalandzadgad,43.5708,104.425,25.13,11,15,4.02,MN,1715070465
63,tadine,-21.55,167.8833,21.21,76,0,4.36,NC,1715070465
64,kingston,17.997,-76.7936,25.09,93,0,1.12,JM,1715070465
65,bechar,31.6167,-2.2167,26.18,13,0,4.12,DZ,1715070465
66,lebu,-37.6167,-73.65,9.24,74,99,4.63,CL,1715070466
67,preobrazheniye,42.9019,133.9064,4.15,94,100,3.89,RU,1715070466
68,lubango,-14.9172,13.4925,21.97,40,2,1.67,AO,1715070466
69,snoqualmie,47.5287,-121.8254,7.76,96,100,1.34,US,1715070467
70,raipur,21.2333,81.6333,37.08,28,20,7.72,IN,1715070467
71,road town,18.4167,-64.6167,25.6,83,24,5.8,VG,1715070467
72,dryden,49.7833,-92.7503,10.16,53,0,4.12,CA,1715070468
73,taoudenni,22.6783,-3.9836,32.42,7,6,2.21,ML,1715070468
74,georgetown,6.8045,-58.1553,26.16,89,100,2.48,GY,1715070468
75,cheney,47.4874,-117.5758,6.01,78,20,5.66,US,1715070373
76,kaspiyskiy,45.3929,47.3707,18.18,38,100,4.44,RU,1715070468
77,ouadda,8.0777,22.4007,36.53,24,53,2.39,CF,1715070469
78,mejit,10.2753,170.8646,27.84,79,99,8.89,MH,1715070469
79,fairfax,38.8462,-77.3064,19.36,89,100,0.45,US,1715070470
80,pugachev,52.0133,48.8025,18.7,54,100,8.15,RU,1715070470
81,bethel,41.3712,-73.414,15.88,82,0,0.0,US,1715070470
82,wailua homesteads,22.0669,-159.378,22.44,87,100,7.2,US,1715070470
83,vilyuchinsk,52.9306,158.4028,4.15,83,50,2.34,RU,1715070470
84,princeville,45.7668,-61.2985,9.36,98,100,4.12,CA,1715070471
85,paracuru,-3.41,-39.0306,26.17,93,69,3.38,BR,1715070471
86,kibuye,-2.0597,29.3482,22.64,71,32,0.38,RW,1715070471
87,hamilton,43.2334,-79.9496,10.37,68,0,4.12,CA,1715070445
88,camana,-16.6228,-72.7111,19.18,91,91,2.83,PE,1715070472
89,colonia,40.5746,-74.3021,17.23,86,0,2.06,US,1715070472
90,ancud,-41.8697,-73.8203,5.97,84,91,2.78,CL,1715070472
91,namibe,-15.1961,12.1522,25.95,55,0,3.28,AO,1715070472
92,mount isa,-20.7333,139.5,26.87,32,10,3.6,AU,1715070473
93,madinat ash shamal,26.1293,51.2009,33.13,48,0,3.69,QA,1715070473
94,naracoorte,-36.9579,140.7383,15.52,48,0,2.87,AU,1715070473
95,quang ngai,15.1167,108.8,32.91,54,98,5.23,VN,1715070473
96,lautoka,-17.6167,177.4667,25.92,83,75,3.6,FJ,1715070474
97,nichinan,31.6,131.3667,23.82,62,100,5.03,JP,1715070474
98,gadzhiyevo,69.2551,33.3362,-0.68,67,86,8.64,RU,1715070474
99,isangel,-19.55,169.2667,23.15,80,92,5.24,VU,1715070474
100,villa gesell,-37.2639,-56.973,16.14,93,100,6.68,AR,1715070475
101,nuuk,64.1835,-51.7216,-2.66,68,0,3.09,GL,1715070475
102,whitecourt,54.1502,-115.6855,6.28,90,100,6.59,CA,1715070475
103,anadyr,64.75,177.4833,-4.72,93,0,3.0,RU,1715070475
104,bredasdorp,-34.5322,20.0403,19.52,50,36,1.12,ZA,1715070475
105,veinticinco de mayo,-35.4323,-60.1727,13.88,100,100,1.34,AR,1715070476
106,ambon,-3.6954,128.1814,29.08,79,40,4.63,ID,1715070476
107,keflavik,64.0049,-22.5624,5.24,75,75,5.66,IS,1715070476
108,hermanus,-34.4187,19.2345,20.45,77,84,2.87,ZA,1715070476
109,nanakuli,21.3906,-158.1547,22.97,78,40,1.54,US,1715070477
110,cody,44.5263,-109.0565,7.36,37,0,6.69,US,1715070477
111,anloga,5.7947,0.8973,29.24,76,100,2.63,GH,1715070477
112,mae hong son,19.3003,97.9685,38.08,32,40,1.54,TH,1715070478
113,utrik,11.2278,169.8474,27.44,80,94,7.64,MH,1715070478
114,vorkuta,67.5,64.0,-6.05,80,100,4.02,RU,1715070478
115,selfoss,63.9331,-20.9971,3.91,73,100,7.93,IS,1715070478
116,daru,-9.0763,143.2092,26.73,87,100,7.12,PG,1715070479
117,sal rei,16.1833,-22.9167,19.11,94,20,0.0,CV,1715070479
118,al fulah,11.7329,28.3579,37.08,10,3,10.48,SD,1715070479
119,camayenne,9.535,-13.6878,29.05,84,40,2.06,GN,1715070479
120,brookings,44.3114,-96.7984,13.0,95,100,8.23,US,1715070479
121,dondo,-19.6094,34.7431,26.73,57,0,1.2,MZ,1715070480
122,ribeira grande,38.5167,-28.7,18.22,94,40,6.71,PT,1715070480
123,vorgashor,67.5833,63.95,-6.22,80,100,4.21,RU,1715070480
124,chimoio,-19.1164,33.4833,20.92,83,40,1.65,MZ,1715070480
125,kourou,5.1552,-52.6478,26.03,94,100,3.73,GF,1715070481
126,crane,31.3974,-102.3501,21.9,23,13,3.4,US,1715070481
127,atafu village,-8.5421,-172.5159,29.87,73,100,4.92,TK,1715070481
128,smithers,54.7804,-127.1743,1.18,75,0,0.0,CA,1715070481
129,egersund,58.4513,5.9997,13.94,59,99,2.47,NO,1715070481
130,uturoa,-16.7333,-151.4333,27.86,80,12,8.59,PF,1715070482
131,sechura,-5.5569,-80.8222,20.61,79,97,6.33,PE,1715070482
132,newman,37.3138,-121.0208,12.38,85,26,0.89,US,1715070264
133,dunedin,-45.8742,170.5036,9.33,77,51,0.45,NZ,1715070483
134,sao jose do rio pardo,-21.5956,-46.8886,16.17,88,23,2.71,BR,1715070483
135,ngorongoro,-3.2397,35.4875,13.91,91,100,2.74,TZ,1715070483
136,mykolayiv,46.9659,31.9974,17.84,48,17,8.84,UA,1715070483
137,porto novo,17.0197,-25.0647,21.0,68,4,2.65,CV,1715070484
138,dudinka,69.4058,86.1778,-5.18,87,100,4.02,RU,1715070484
139,ribadesella,43.4614,-5.0596,15.53,72,4,2.41,ES,1715070484
140,mboursou lere,9.7639,14.1539,36.33,19,100,2.42,TD,1715070485
141,sambava,-14.2667,50.1667,26.7,74,99,6.33,MG,1715070485
142,tabuk,17.4189,121.4443,36.87,29,13,6.39,PH,1715070485
143,kodiak,57.79,-152.4072,4.73,87,100,4.12,US,1715070486
144,al ghayzah,16.2079,52.176,33.27,61,12,7.28,YE,1715070486
145,thompson,55.7435,-97.8558,5.09,75,20,4.12,CA,1715070486
146,belmonte,-15.8631,-38.8828,24.7,85,4,3.26,BR,1715070486
147,mirzapur,25.15,82.5833,34.98,15,22,5.8,IN,1715070487
148,nemuro,43.3236,145.575,7.15,100,100,4.09,JP,1715070487
149,bandar labuan,5.2888,115.2692,30.2,79,20,0.51,MY,1715070488
150,al marj,32.488,20.8317,22.96,27,34,2.87,LY,1715070488
151,anna regina,7.2644,-58.5077,25.96,87,100,3.16,GY,1715070488
152,cockburn town,21.4612,-71.1419,25.01,84,82,8.02,TC,1715070488
153,onguday,50.75,86.15,18.1,46,14,1.97,RU,1715070488
154,boguchany,58.3814,97.4531,6.03,55,100,4.02,RU,1715070412
155,palikir - national government center,6.9248,158.1611,27.41,78,100,3.09,FM,1715070489
156,enewetak,11.3474,162.3373,27.86,78,97,7.97,MH,1715070489
157,pisco,-13.7,-76.2167,19.03,88,100,1.54,PE,1715070490
158,sisimiut,66.9395,-53.6735,-7.88,78,66,3.65,GL,1715070491
159,horsham,51.064,-0.3272,15.01,74,0,3.6,GB,1715070491
160,kapuskasing,49.4169,-82.4331,1.05,93,0,0.51,CA,1715070491
161,la ronge,55.1001,-105.2842,6.14,87,100,3.6,CA,1715070492
162,port douglas,-16.4833,145.4667,24.74,82,54,5.66,AU,1715070492
163,taltal,-25.4,-70.4833,14.71,79,100,0.25,CL,1715070492
164,cape coast,5.1053,-1.2466,28.04,80,100,2.13,GH,1715070493
165,el granada,37.5027,-122.4694,12.97,83,0,5.66,US,1715070493
166,ca mau,9.1769,105.15,35.94,40,59,4.61,VN,1715070493
167,bati,11.1833,40.0167,25.06,56,18,3.43,ET,1715070494
168,kiffa,16.6166,-11.4045,31.87,9,0,5.5,MR,1715070494
169,reggane,26.7158,0.1714,33.95,13,0,3.85,DZ,1715070494
170,shahr-e babak,30.1165,55.1186,24.24,26,0,9.18,IR,1715070494
171,amarpur,25.0333,86.9,37.05,30,0,4.54,IN,1715070495
172,susuman,62.7833,148.1667,3.88,61,94,1.79,RU,1715070495
173,mandalgovi,45.7625,106.2708,25.84,11,0,7.62,MN,1715070495
174,codrington,-38.2667,141.9667,12.37,90,0,3.91,AU,1715070495
175,susanville,40.4163,-120.653,5.51,75,95,0.45,US,1715070496
176,autazes,-3.5797,-59.1306,23.45,100,97,1.22,BR,1715070497
177,wanning,18.8003,110.3967,30.5,62,67,3.93,CN,1715070497
178,guerrero negro,27.9769,-114.0611,14.73,82,0,5.25,MX,1715070497
179,ulladulla,-35.35,150.4667,15.62,79,100,2.4,AU,1715070498
180,hasaki,35.7333,140.8333,19.22,88,100,12.5,JP,1715070498
181,vila franca do campo,37.7167,-25.4333,18.27,99,100,6.98,PT,1715070499
182,fortaleza,-3.7227,-38.5247,26.23,94,20,3.09,BR,1715070418
183,cruzeiro do sul,-29.5128,-51.9853,22.51,94,8,2.22,BR,1715070500
184,merlo,-32.3429,-65.014,12.32,87,3,2.32,AR,1715070500
185,sumbawa besar,-8.5,117.4333,29.57,74,74,1.68,ID,1715070500
186,chibougamau,49.9168,-74.3659,1.79,87,75,3.09,CA,1715070500
187,olonkinbyen,70.9221,-8.7187,-0.79,99,100,4.64,SJ,1715070501
188,lorengau,-2.0226,147.2712,28.0,82,96,2.49,PG,1715070501
189,puerto baquerizo moreno,-0.9,-89.6,22.88,90,45,3.59,EC,1715070501
190,amarante do maranhao,-5.5667,-46.7422,20.56,81,75,1.54,BR,1715070502
191,luena,-11.7833,19.9167,23.5,48,8,1.95,AO,1715070502
192,las terrenas,19.311,-69.5428,24.57,91,27,2.73,DO,1715070502
193,bel ombre,-4.6167,55.4167,30.91,74,40,4.63,SC,1715070502
194,wellington,-41.2866,174.7756,8.81,76,1,2.06,NZ,1715070489
195,ringkobing,56.0901,8.244,12.23,87,75,4.12,DK,1715070503
196,altai,46.3722,96.2583,17.15,19,98,5.45,MN,1715070503
197,greymouth,-42.4667,171.2,7.18,80,0,2.02,NZ,1715070503
198,ovada,44.6384,8.6453,15.28,94,100,0.58,IT,1715070503
199,vinaros,40.4703,0.4756,18.47,48,0,5.54,ES,1715070504
200,acarau,-2.8856,-40.12,24.57,94,97,4.21,BR,1715070504
201,santa vitoria do palmar,-33.5189,-53.3681,19.82,98,91,3.69,BR,1715070504
202,cidreira,-30.1811,-50.2056,20.91,90,2,1.52,BR,1715070504
203,rondonopolis,-16.4708,-54.6356,19.54,76,38,1.22,BR,1715070505
204,jamestown,42.097,-79.2353,9.8,53,0,2.57,US,1715070505
205,kenai,60.5544,-151.2583,3.97,100,100,0.0,US,1715070505
206,whakatane,-37.9585,176.9854,9.73,87,22,0.89,NZ,1715070506
207,dedougou,12.4667,-3.4667,30.72,46,100,3.74,BF,1715070506
208,bartica,6.4,-58.6167,26.18,96,100,0.82,GY,1715070506
209,hastings,50.8552,0.5729,15.04,85,59,6.08,GB,1715070506
210,rongelap,11.1635,166.8941,27.36,83,46,8.76,MH,1715070507
211,kavaratti,10.5669,72.642,30.08,67,49,2.87,IN,1715070507
212,mount pearl,47.5166,-52.7813,3.86,94,100,5.66,CA,1715070307
213,sao vicente,-23.9631,-46.3919,27.1,26,6,1.89,BR,1715070507
214,betio village,1.358,172.9211,28.02,79,79,3.67,KI,1715070507
215,galveston,29.3014,-94.7977,26.16,89,100,7.72,US,1715070508
216,port alfred,-33.5906,26.891,27.74,36,0,4.17,ZA,1715070508
217,nebbi,2.4783,31.0889,22.87,86,100,1.96,UG,1715070509
218,pimenta bueno,-11.6725,-61.1936,22.8,93,100,0.65,BR,1715070509
219,aykhal,66.0,111.5,0.61,87,85,12.06,RU,1715070509
220,inirida,3.8653,-67.9239,23.42,99,100,0.4,CO,1715070510
221,acajutla,13.5928,-89.8275,27.15,80,92,1.88,SV,1715070510
222,bathsheba,13.2167,-59.5167,27.34,83,40,7.2,BB,1715070510
223,tuy hoa,13.0833,109.3,32.4,57,75,5.22,VN,1715070511
224,igarka,67.4667,86.5833,-5.55,84,100,5.81,RU,1715070511
225,harstad,68.799,16.5293,4.66,63,47,9.83,NO,1715070512
226,at-bashi,41.1702,75.8106,17.54,29,0,1.17,KG,1715070512
227,lavelanet,42.9313,1.8466,12.25,81,95,1.79,FR,1715070512
228,saldanha,-33.0117,17.9442,16.03,81,100,5.24,ZA,1715070512
229,kaa-khem,51.6833,94.7333,17.45,21,42,6.18,RU,1715070513
230,yangjiang,21.85,111.9667,29.63,69,26,3.59,CN,1715070494
231,jhang sadr,31.2715,72.3284,42.51,10,0,2.54,PK,1715070513
232,san juan,-31.5375,-68.5364,11.29,80,2,1.07,AR,1715070514
233,bacong,9.2464,123.2956,30.99,66,20,4.12,PH,1715070514
234,laboe,54.4,10.2167,13.38,80,75,4.63,DE,1715070514
235,knik-fairview,61.5126,-149.6001,5.01,92,40,2.06,US,1715070514
236,bikenibeu village,1.3673,173.1241,27.98,89,75,2.06,KI,1715070515
237,usogorsk,63.4106,48.6872,-1.3,58,0,3.36,RU,1715070515
238,dolores,-36.3132,-57.6792,15.55,95,100,4.01,AR,1715070516
239,novobelokatay,55.7062,58.9549,7.76,53,98,5.45,RU,1715070516
240,changping,40.2186,116.2197,28.8,13,56,1.48,CN,1715070516
241,ishigaki,24.3448,124.1572,27.07,74,75,7.2,JP,1715070516
242,westport,41.1415,-73.3579,16.59,83,20,2.68,US,1715070517
243,bafq,31.6128,55.4107,32.63,15,7,10.47,IR,1715070517
244,hotan,37.0997,79.9269,27.0,17,69,4.7,CN,1715070517
245,ulsteinvik,62.3432,5.8487,12.4,91,100,0.45,NO,1715070517
246,as sulayyil,20.4607,45.5779,36.14,12,0,4.26,SA,1715070518
247,zhaoyuan,37.3592,120.3964,17.04,39,80,6.57,CN,1715070518
248,aasiaat,68.7098,-52.8699,-13.48,90,99,2.5,GL,1715070519
249,bathurst,-33.4166,149.5806,13.79,87,94,2.56,AU,1715070519
250,mpongwe,-13.5091,28.155,26.9,46,14,4.41,ZM,1715070519
251,bonthe,7.5264,-12.505,28.14,77,48,1.2,SL,1715070520
252,ha giang,22.8333,104.9833,29.79,73,100,1.09,VN,1715070520
253,paithan,19.4833,75.3833,39.82,16,0,2.59,IN,1715070520
254,zhangjiakou,40.81,114.8794,24.85,14,100,1.9,CN,1715070520
255,kyaikkami,16.08,97.5675,30.77,66,3,4.75,MM,1715070521
256,suntar,62.1444,117.6319,4.46,75,98,6.14,RU,1715070521
257,bridgewater,44.3835,-64.5155,10.06,97,100,2.57,CA,1715070521
258,saipan,15.2123,145.7545,27.08,78,40,7.2,MP,1715070522
259,margate,51.3813,1.3862,14.61,90,51,2.68,GB,1715070522
260,vila velha,-20.3297,-40.2925,20.97,100,0,2.57,BR,1715070522
261,sakaiminato,35.55,133.2333,15.99,100,75,3.6,JP,1715070523
262,lydenburg,-25.0978,30.4597,24.71,17,0,0.9,ZA,1715070523
263,touba,8.2833,-7.6833,24.92,79,59,1.86,CI,1715070523
264,alofi,-19.0595,-169.9187,26.94,94,75,3.09,NU,1715070523
265,constantia,-34.0314,18.4183,17.79,89,75,6.69,ZA,1715070524
266,harlingen,26.1906,-97.6961,27.95,92,100,5.14,US,1715070525
267,saint-pierre,-21.3393,55.4781,27.82,57,0,12.86,RE,1715070525
268,grand falls-windsor,48.9332,-55.6649,4.72,91,99,0.45,CA,1715070525
269,san jose,37.3394,-121.895,12.94,84,0,0.89,US,1715070505
270,pangkalanbuun,-2.6833,111.6167,32.06,59,90,2.13,ID,1715070525
271,ovalle,-30.5983,-71.2003,11.98,68,99,0.47,CL,1715070526
272,serenje,-13.2325,30.2352,23.91,53,6,5.31,ZM,1715070526
273,magadan,59.5667,150.8,3.07,96,95,1.86,RU,1715070526
274,olovyannaya,50.95,115.5667,26.95,15,30,6.17,RU,1715070526
275,waimea,20.0231,-155.6717,17.48,97,85,1.34,US,1715070349
276,saint-philippe,-21.3585,55.7679,27.77,66,38,6.14,RE,1715070527
277,macae,-22.3708,-41.7869,22.86,83,0,1.54,BR,1715070528
278,bilajer,40.5681,50.0378,11.9,94,100,10.29,AZ,1715070528
279,mossel bay,-34.1831,22.146,19.96,58,9,0.7,ZA,1715070528
280,lerwick,60.1545,-1.1494,9.0,89,100,7.4,GB,1715070528
281,itupiranga,-5.1347,-49.3267,23.18,96,78,1.29,BR,1715070528
282,cold lake,54.4502,-110.2017,8.97,93,100,6.69,CA,1715070430
283,monrovia,6.3005,-10.7969,25.87,87,88,1.83,LR,1715070529
284,fort bragg,35.139,-79.006,20.91,90,75,4.63,US,1715070511
285,harper,4.375,-7.7169,27.42,83,79,0.81,LR,1715070529
286,luanda,-8.8368,13.2343,29.0,77,75,3.6,AO,1715070529
287,hithadhoo,-0.6,73.0833,29.71,74,59,4.7,MV,1715070530
288,mwaro,-3.5272,29.7034,19.9,77,35,2.75,BI,1715070530
289,yuzhno-kurilsk,44.0306,145.8556,5.76,99,100,2.75,RU,1715070531
290,coruripe,-10.1256,-36.1756,25.52,91,100,7.39,BR,1715070531
291,usinsk,65.9939,57.5281,-1.07,78,100,9.83,RU,1715070531
292,roma,41.8947,12.4839,20.88,42,20,4.63,IT,1715070532
293,talara,-4.5772,-81.2719,20.94,79,86,7.56,PE,1715070532
294,nsanje,-16.92,35.262,29.6,50,0,2.16,MW,1715070533
295,kimbe,-5.5502,150.1429,26.09,92,96,2.5,PG,1715070533
296,polyarnyy,69.1989,33.4478,-0.95,66,74,8.32,RU,1715070533
297,ketchikan,55.3422,-131.6461,6.26,87,20,2.06,US,1715070488
298,naze,28.3667,129.4833,21.51,72,100,5.64,JP,1715070534
299,olinda,-8.0089,-34.8553,24.85,100,75,1.54,BR,1715070534
300,kone,-21.0595,164.8658,20.93,73,1,1.44,NC,1715070534
301,turochak,52.2576,87.1224,18.53,39,2,2.71,RU,1715070534
302,mili,6.0815,171.735,28.12,84,81,9.72,MH,1715070535
303,nishinoomote,30.7333,131.0,20.31,72,75,10.8,JP,1715070535
304,guacimo,10.2104,-83.6807,27.33,89,18,0.77,CR,1715070536
305,haifa,32.8156,34.9892,22.38,61,75,4.12,IL,1715070536
306,boa vista,2.8197,-60.6733,23.99,94,75,1.03,BR,1715070536
307,sinabang,2.4803,96.3801,27.06,85,100,0.85,ID,1715070537
308,al jawf,24.1989,23.2909,27.35,18,0,4.43,LY,1715070537
309,tuxpan,19.55,-103.4,18.64,47,95,1.24,MX,1715070537
310,nova olimpia,-14.7972,-57.2881,20.77,71,68,1.6,BR,1715070537
311,simanggang,1.2472,111.4528,31.99,70,40,2.57,MY,1715070538
312,cabo san lucas,22.8909,-109.9124,24.17,46,100,5.05,MX,1715070297
313,ust-nera,64.5667,143.2,5.46,71,49,2.29,RU,1715070538
314,beau vallon,-20.4189,57.6953,28.45,65,40,6.69,MU,1715070538
315,sainte-anne-des-monts,49.124,-66.4924,5.93,81,15,10.8,CA,1715070539
316,santona,43.4439,-3.4576,14.83,83,19,5.46,ES,1715070539
317,zhangye,38.9342,100.4517,31.57,7,80,4.07,CN,1715070540
318,annau,37.8876,58.516,33.72,21,75,4.12,TM,1715070540
319,qaqortoq,60.7167,-46.0333,-2.71,70,45,1.72,GL,1715070540
320,kroya,-7.6331,109.2461,29.09,69,5,5.15,ID,1715070541
321,aoulef,26.9667,1.0833,33.16,18,0,4.39,DZ,1715070541
322,mouila,-1.8685,11.0559,27.06,86,100,1.46,GA,1715070541
323,shushtar,32.0455,48.8567,31.73,25,95,3.54,IR,1715070542
324,santa cruz,14.2814,121.4161,35.03,50,4,5.33,PH,1715070542
325,topolobampo,25.6,-109.05,19.67,76,92,3.58,MX,1715070542
326,qom,34.6401,50.8764,21.6,46,66,2.74,IR,1715070542
327,petropavlovka,50.6114,105.3196,17.93,46,100,5.41,RU,1715070543
328,svetlyy,54.675,20.1347,10.03,57,0,5.41,RU,1715070543
329,shakawe,-18.3667,21.85,26.01,37,47,3.07,BW,1715070543
330,mar del plata,-38.0023,-57.5575,16.72,93,100,4.12,AR,1715070543
331,trakai,54.6333,24.9333,10.09,54,16,6.54,LT,1715070544
332,progreso,21.2833,-89.6667,28.06,83,16,6.04,MX,1715070544
333,corn island,12.1694,-83.0418,28.44,82,95,4.76,NI,1715070544
334,tura,25.5198,90.2201,34.26,33,6,2.49,IN,1715070544
335,petrolina,-9.3986,-40.5008,23.03,88,75,2.06,BR,1715070545
336,san julian,21.0167,-102.1667,18.99,20,100,2.92,MX,1715070545
337,meadow lakes,61.6247,-149.6011,4.0,92,40,1.54,US,1715070546
338,visby,57.6409,18.296,10.58,87,0,6.69,SE,1715070546
339,tibanbang,6.6315,126.1055,28.66,76,95,3.04,PH,1715070546
340,dublin,37.7021,-121.9358,12.74,84,0,2.57,US,1715070547
341,california city,35.1258,-117.9859,15.48,32,0,10.8,US,1715070547
342,shingu,33.7333,135.9833,21.02,84,100,0.95,JP,1715070548
343,saudarkrokur,65.7461,-19.6394,5.36,72,100,7.1,IS,1715070548
344,araucaria,-25.5931,-49.4103,17.23,78,0,1.66,BR,1715070548
345,ahiri,19.4,80.0167,40.81,28,54,4.18,IN,1715070549
346,kamba,11.8486,3.6576,30.71,56,100,6.04,NG,1715070549
347,box elder,44.1125,-103.0682,10.27,59,100,15.43,US,1715070550
348,mitu,1.1983,-70.1733,22.83,100,100,0.77,CO,1715070550
349,portland,45.5234,-122.6762,8.05,89,75,1.34,US,1715070385
350,luderitz,-26.6481,15.1594,17.63,66,0,3.98,NA,1715070550
351,daloa,6.8774,-6.4502,24.97,92,98,1.23,CI,1715070550
352,mirandela,41.4874,-7.187,15.72,66,45,1.02,PT,1715070551
353,ray,23.6833,85.05,32.43,17,52,2.73,IN,1715070551
354,new norfolk,-42.7826,147.0587,13.72,72,100,1.24,AU,1715070551
355,santo amaro da imperatriz,-27.6881,-48.7786,23.78,78,2,2.08,BR,1715070551
356,chamrajnagar,11.9167,76.95,36.5,31,20,2.51,IN,1715070552
357,guangyuan,32.442,105.823,29.95,39,100,1.87,CN,1715070552
358,kirkwall,58.9848,-2.9587,9.03,81,100,2.57,GB,1715070552
359,sao gabriel da cachoeira,-0.1303,-67.0892,23.11,100,100,1.19,BR,1715070552
360,chonchi,-42.6128,-73.8092,4.56,97,100,1.09,CL,1715070552
361,leo,11.1,-2.1,27.41,61,100,3.29,BF,1715070553
362,mont-laurier,46.5501,-75.4993,3.79,81,2,1.08,CA,1715070553
363,refahiye,39.9008,38.7667,5.33,73,100,1.85,TR,1715070553
364,pitimbu,-7.4706,-34.8086,23.33,82,100,0.7,BR,1715070553
365,klaksvik,62.2266,-6.589,8.51,70,81,3.4,FO,1715070554
366,kani keli,-12.9536,45.1033,30.59,72,100,6.16,YT,1715070554
367,maryborough,-25.5333,152.7,21.17,93,8,2.1,AU,1715070554
368,oranjemund,-28.55,16.4333,17.23,73,0,1.86,NA,1715070310
369,horta,38.5333,-28.6333,17.8,94,40,6.71,PT,1715070555
370,grande prairie,55.1667,-118.8027,9.1,40,75,5.14,CA,1715070442
371,san patricio,19.2167,-104.7,21.23,79,100,1.68,MX,1715070555
372,masterton,-40.9597,175.6575,5.61,82,2,0.52,NZ,1715070556
373,tambura,5.6,27.4667,34.86,34,15,2.5,SS,1715070556
374,remire-montjoly,4.9167,-52.2667,26.02,94,75,2.06,GF,1715070556
375,bodaybo,57.8506,114.1933,10.95,73,100,4.33,RU,1715070556
376,okha,53.5739,142.9478,2.92,63,20,3.58,RU,1715070557
377,holualoa,19.6228,-155.9522,20.91,88,100,2.57,US,1715070557
378,xilin hot,43.9667,116.0333,22.27,12,6,4.74,CN,1715070557
379,bamboo flat,11.7,92.7167,34.05,52,40,3.09,IN,1715070558
380,cao bang,22.6667,106.25,29.42,70,100,2.04,VN,1715070558
381,znamenskoye,57.1281,73.8282,9.67,70,100,4.57,RU,1715070558
382,gambiran satu,-8.3939,114.1464,28.56,73,43,1.96,ID,1715070558
383,north battleford,52.7834,-108.2847,10.05,93,100,7.72,CA,1715070559
384,hailar,49.2,119.7,22.06,17,66,2.34,CN,1715070559
385,lewiston orchards,46.3804,-116.9754,7.37,84,18,2.2,US,1715070559
386,paddhari,22.4333,70.6,38.86,22,0,4.16,IN,1715070559
387,penal,10.1667,-61.4667,27.16,87,100,3.59,TT,1715070560
388,ende,-8.8432,121.6623,25.51,86,68,1.65,ID,1715070560
389,pombas,17.1503,-25.0201,19.88,70,2,2.48,CV,1715070561
390,awjilah,29.1081,21.2869,24.99,23,0,2.46,LY,1715070561
391,burang,30.25,81.1667,6.55,52,90,3.84,CN,1715070561
392,pontianak,-0.0333,109.3333,29.99,84,75,2.57,ID,1715070561
393,aswan,24.0934,32.907,28.14,18,0,5.23,EG,1715070562
394,callao,-12.0667,-77.15,19.84,88,100,4.12,PE,1715070562
395,winneba,5.3511,-0.6231,28.23,80,100,2.41,GH,1715070563
396,egilsstadir,65.2653,-14.3948,8.95,53,20,5.66,IS,1715070563
397,kupang,-10.1667,123.5833,32.32,70,20,5.14,ID,1715070563
398,klyuchi,52.2667,79.1667,16.96,25,97,4.33,RU,1715070563
399,el nido,11.1858,119.3956,31.08,62,11,4.15,PH,1715070563
400,pasuquin,18.3328,120.6177,32.97,66,20,3.6,PH,1715070564
401,lihue,21.9789,-159.3672,22.77,83,100,7.2,US,1715070564
402,kertih,4.5141,103.4483,32.01,70,20,3.09,MY,1715070564
403,baturaja,-4.1333,104.1667,27.23,92,92,0.89,ID,1715070564
404,new plymouth,-39.0667,174.0833,7.95,59,0,6.01,NZ,1715070448
405,hankasalmi,62.4167,26.5,5.04,49,100,3.97,FI,1715070565
406,sihanoukville,10.6093,103.5296,33.97,59,40,6.17,KH,1715070565
407,kirakira,-10.4544,161.9205,27.44,84,28,4.02,SB,1715070565
408,agat village,13.3886,144.6585,28.53,78,0,3.6,GU,1715070566
409,lompoc,34.6391,-120.4579,12.55,93,0,6.17,US,1715070566
410,mao,39.8885,4.2658,18.31,59,0,9.26,ES,1715070566
411,turnhout,51.3225,4.9447,15.94,91,100,1.34,BE,1715070566
412,necochea,-38.5473,-58.7368,14.25,80,100,5.31,AR,1715070567
413,midvagur,62.0511,-7.1939,8.46,76,75,3.09,FO,1715070567
414,las tablas,7.7667,-80.2833,26.76,99,58,1.57,PA,1715070568
415,kalmunai,7.4167,81.8167,32.09,64,19,5.92,LK,1715070568
416,vernon,50.2581,-119.2691,8.75,54,99,0.0,CA,1715070529
417,gladstone,-23.85,151.25,22.96,68,19,3.09,AU,1715070569
418,tosontsengel,48.7567,98.2839,20.42,26,100,6.96,MN,1715070569
419,kabalo,-6.05,26.9167,30.11,52,3,3.32,CD,1715070569
420,dalbandin,28.8947,64.4101,35.74,11,0,1.23,PK,1715070569
421,muncheberg,52.5,14.1333,11.68,80,100,4.21,DE,1715070570
422,mogadishu,2.0371,45.3438,29.93,89,75,5.14,SO,1715070570
423,laguna,38.421,-121.4238,13.2,87,0,3.09,US,1715070570
424,lagoa,39.05,-27.9833,16.73,90,0,6.99,PT,1715070570
425,pandan,14.0453,124.1694,29.46,69,2,5.62,PH,1715070571
426,aquidauana,-20.4711,-55.7872,22.02,61,90,1.25,BR,1715070571
427,balsas,-7.5325,-46.0356,21.6,80,94,1.55,BR,1715070571
428,paraiso,9.8383,-83.8656,20.64,100,36,0.75,CR,1715070572
429,kijang,35.2442,129.2139,11.85,88,100,7.0,KR,1715070572
430,kailua-kona,19.6406,-155.9956,22.98,88,100,2.57,US,1715070572
431,seme,15.1942,-12.9448,30.82,17,1,3.36,SN,1715070572
432,jindabyne,-36.4167,148.6333,8.65,87,3,0.89,AU,1715070572
433,tamanrasset,22.785,5.5228,28.95,17,17,8.23,DZ,1715070573
434,isiro,2.7739,27.616,28.9,53,90,1.7,CD,1715070573
435,mogocha,53.7333,119.7667,21.51,25,100,3.11,RU,1715070573
436,laghouat,33.8,2.8651,24.06,21,96,6.5,DZ,1715070573
437,the bottom,17.6259,-63.2492,24.31,80,32,5.77,BQ,1715070573
438,tralee,52.2704,-9.7026,10.14,87,75,2.57,IE,1715070574
439,touros,-5.1989,-35.4608,25.38,82,24,3.83,BR,1715070574
440,sumbe,-11.2061,13.8437,27.55,72,30,1.2,AO,1715070574
441,cooma,-36.2333,149.1333,9.35,90,2,1.99,AU,1715070574
442,kyren,51.6828,102.1408,8.3,80,100,3.13,RU,1715070574
443,port lincoln,-34.7333,135.8667,16.15,74,0,3.96,AU,1715070575
444,kulhudhuffushi,6.6221,73.07,29.71,72,100,3.23,MV,1715070575
445,iskateley,67.6803,53.1512,-9.43,90,100,5.36,RU,1715070575
446,east london,-33.0153,27.9116,32.52,25,0,4.12,ZA,1715070576
447,alice springs,-23.7,133.8833,20.75,40,100,4.63,AU,1715070389
448,hauterive,46.0901,3.4459,12.77,90,100,2.64,FR,1715070576
449,castillos,-34.1667,-53.8333,19.49,99,100,1.18,UY,1715070576
450,ulmeni,47.4667,23.3,20.09,71,96,6.47,RO,1715070577
451,malabrigo,-29.3464,-59.9696,22.14,93,100,2.92,AR,1715070577
452,la libertad,-2.2333,-80.9,23.84,81,73,5.28,EC,1715070578
453,belozersk,60.0326,37.7957,-0.01,65,100,3.13,RU,1715070578
454,kushiro,42.975,144.3747,11.53,100,75,2.57,JP,1715070579
455,garachico,28.7781,-17.7646,19.06,68,75,4.63,ES,1715070579
456,cabedelo,-6.9811,-34.8339,23.37,80,65,1.25,BR,1715070579
457,anaconda,46.1285,-112.9423,3.55,83,100,3.32,US,1715070579
458,natal,-5.795,-35.2094,24.36,94,40,2.06,BR,1715070568
459,paradip garh,20.3167,86.6167,33.22,60,67,6.84,IN,1715070580
460,eastham,41.8301,-69.9739,14.77,93,0,1.79,US,1715070287
461,korla,41.7597,86.1469,31.67,10,98,0.48,CN,1715070581
462,menongue,-14.6585,17.691,25.25,36,8,2.53,AO,1715070581
463,mpika,-11.8343,31.4529,22.58,59,5,5.59,ZM,1715070581
464,mermoz boabab,14.7065,-17.4758,22.88,94,0,1.03,SN,1715070581
465,aripuana,-9.1667,-60.6333,24.76,92,85,0.39,BR,1715070581
466,wagar,16.1525,36.2032,35.18,17,0,2.49,SD,1715070582
467,ghat,24.9647,10.1728,32.83,17,36,7.19,LY,1715070582
468,nabire,-3.3667,135.4833,26.8,90,100,1.71,ID,1715070582
469,gisborne,-38.6533,178.0042,12.46,66,100,5.91,NZ,1715070582
470,slave lake,55.2834,-114.769,7.99,100,100,3.09,CA,1715070583
471,northam,51.0333,-4.2167,13.7,94,53,1.0,GB,1715070583
472,ponta delgada,37.7333,-25.6667,18.44,94,75,10.29,PT,1715070583
473,san jose de jachal,-30.2406,-68.7469,9.96,53,2,0.44,AR,1715070584
474,chela,34.069,104.4619,17.05,46,100,5.36,CN,1715070584
475,darwin,-12.4611,130.8418,32.81,58,75,3.6,AU,1715070584
476,edd,13.9297,41.6925,30.99,68,8,4.42,ER,1715070584
477,gobabis,-22.45,18.9667,24.22,25,0,7.68,NA,1715070584
478,fisterra,42.9049,-9.2629,12.64,80,15,4.1,ES,1715070585
479,humaita,-7.5061,-63.0208,23.35,99,100,1.02,BR,1715070585
480,san borja,-14.8167,-66.85,23.12,97,100,1.22,BO,1715070586
481,alenquer,-1.9417,-54.7383,24.36,97,100,1.29,BR,1715070586
482,juneau,58.3019,-134.4197,6.0,93,100,2.57,US,1715070586
483,labytnangi,66.6572,66.4183,-5.9,86,80,6.09,RU,1715070587
484,lagunas,-5.2269,-75.6753,22.93,99,54,0.53,PE,1715070587
485,maun,-19.9833,23.4167,27.72,23,0,3.58,BW,1715070587
486,ormara,25.2088,64.6357,27.18,78,0,7.87,PK,1715070587
487,tobelo,1.7284,128.0095,30.09,67,100,2.44,ID,1715070588
488,alaghsas,17.0187,8.0168,33.94,22,100,2.06,NE,1715070588
489,akureyri,65.6835,-18.0878,6.96,61,75,7.72,IS,1715070588
490,papao,-17.75,-149.55,26.82,84,38,10.83,PF,1715070588
491,moroto,2.5345,34.6666,24.81,66,57,0.98,UG,1715070589
492,eirunepe,-6.6603,-69.8736,22.96,99,100,0.94,BR,1715070589
493,ratnagiri,16.9833,73.3,31.88,59,0,6.26,IN,1715070589
494,nizhneangarsk,55.7833,109.55,5.56,61,100,0.45,RU,1715070590
495,kill devil hills,36.0307,-75.676,21.1,86,0,4.63,US,1715070590
496,kerikeri,-35.2268,173.9474,13.28,87,75,2.24,NZ,1715070590
497,rocky mountain house,52.3668,-114.9188,5.06,93,100,6.17,CA,1715070481
498,labuan,-6.3784,105.83,29.61,73,20,1.75,ID,1715070591
499,katsuura,35.1333,140.3,20.01,93,100,13.8,JP,1715070592
500,guerrero,20.1667,-98.65,14.06,60,69,2.92,MX,1715070592
501,simpang,-1.2667,104.0833,27.76,92,100,0.54,ID,1715070592
502,fale old settlement,-9.3852,-171.2468,29.9,74,90,4.23,TK,1715070593
503,zouerate,22.7187,-12.4521,28.47,8,100,4.04,MR,1715070593
504,berezovo,63.9381,65.0419,0.3,99,100,5.28,RU,1715070593
505,tevriz,57.509,72.4042,11.95,60,98,4.72,RU,1715070593
506,markaz-e woluswali-ye achin,34.1258,70.7078,29.92,21,4,2.62,AF,1715070594
507,surigao,9.7839,125.4889,29.75,68,98,2.12,PH,1715070594
508,bulolo,-7.2,146.65,23.75,98,100,1.27,PG,1715070594
509,maridi,4.9158,29.4742,27.19,55,100,1.79,SS,1715070594
510,machico,32.7,-16.7667,22.06,83,75,3.09,PT,1715070595
